{
  "metadata": {
    "last_updated": "2024-11-07",
    "total_counties": 47,
    "verified_counties": 7,
    "data_sources": [
      "Ministry of Health Kenya",
      "FIDA Kenya",
      "Kenya Police Service",
      "County Government Websites"
    ],
    "instructions": "Fill in resources for each county. If resource doesn't exist, leave array empty []"
  },
  
  "counties": {
    "Mombasa": {
      "county_code": "001",
      "region": "Coast",
      "verified": true,
      "medical": [
        {
          "name": "Coast General Teaching and Referral Hospital - GBV Centre",
          "type": "Public Hospital",
          "phone": "041-2312301 / 0713-449700",
          "location": "Hospital Road, Mombasa",
          "services": ["Medical examination", "PEP", "Counseling", "Forensics"],
          "hours": "24/7",
          "cost": "Free/Subsidized"
        },
        {
          "name": "Likoni Sub-County Hospital",
          "type": "Public Hospital",
          "phone": "041-2471720",
          "location": "Likoni, Mombasa",
          "services": ["GBV medical services", "Referrals"],
          "hours": "24/7"
        }
      ],
      "legal": [
        {
          "name": "FIDA Kenya - Mombasa Office",
          "phone": "041-2314925 / 0800-720553",
          "location": "Mombasa",
          "services": ["Legal aid", "Court representation"],
          "cost": "FREE"
        }
      ],
      "counseling": [
        {
          "name": "Coast Counselling and Support Services",
          "phone": "041-2222881",
          "services": ["Trauma counseling", "Group therapy"]
        }
      ],
      "shelters": [],
      "police": [
        {
          "name": "Mombasa Central Police Station - Gender Desk",
          "phone": "041-2312121 / 999",
          "location": "Makadara Road, Mombasa"
        }
      ]
    },

    "Kwale": {
      "county_code": "002",
      "region": "Coast",
      "verified": false,
      "medical": [
        {
          "name": "Kwale County Referral Hospital",
          "type": "Public Hospital",
          "phone": "TO BE VERIFIED",
          "location": "Kwale Town",
          "services": ["Medical services", "Referrals"],
          "hours": "24/7",
          "notes": "Contact county health department for GBV unit details"
        }
      ],
      "legal": [
        {
          "name": "FIDA Kenya (Call Mombasa Office for Kwale services)",
          "phone": "0800-720553",
          "services": ["Legal aid", "Referrals"],
          "cost": "FREE"
        }
      ],
      "counseling": [],
      "shelters": [],
      "police": [
        {
          "name": "Kwale Police Station - Gender Desk",
          "phone": "999",
          "location": "Kwale"
        }
      ]
    },

    "Kilifi": {
      "county_code": "003",
      "region": "Coast",
      "verified": false,
      "medical": [
        {
          "name": "Kilifi County Referral Hospital",
          "type": "Public Hospital",
          "phone": "TO BE VERIFIED",
          "location": "Kilifi Town",
          "services": ["Medical services"],
          "hours": "24/7"
        }
      ],
      "legal": [
        {
          "name": "FIDA Kenya - Toll-free",
          "phone": "0800-720553",
          "cost": "FREE"
        }
      ],
      "counseling": [],
      "shelters": [],
      "police": [
        {
          "name": "Kilifi Police Station",
          "phone": "999"
        }
      ]
    },

    "Tana River": {
      "county_code": "004",
      "region": "Coast",
      "verified": false,
      "medical": [
        {
          "name": "Hola County Hospital",
          "phone": "TO BE VERIFIED",
          "location": "Hola"
        }
      ],
      "legal": [
        {
          "name": "FIDA Kenya - Toll-free",
          "phone": "0800-720553",
          "cost": "FREE"
        }
      ],
      "counseling": [],
      "shelters": [],
      "police": []
    },

    "Lamu": {
      "county_code": "005",
      "region": "Coast",
      "verified": false,
      "medical": [
        {
          "name": "Lamu County Referral Hospital",
          "phone": "TO BE VERIFIED",
          "location": "Lamu"
        }
      ],
      "legal": [
        {
          "name": "FIDA Kenya",
          "phone": "0800-720553",
          "cost": "FREE"
        }
      ],
      "counseling": [],
      "shelters": [],
      "police": []
    },

    "Taita Taveta": {
      "county_code": "006",
      "region": "Coast",
      "verified": false,
      "medical": [
        {
          "name": "Moi County Referral Hospital - Voi",
          "phone": "TO BE VERIFIED",
          "location": "Voi"
        }
      ],
      "legal": [
        {
          "name": "FIDA Kenya",
          "phone": "0800-720553",
          "cost": "FREE"
        }
      ],
      "counseling": [],
      "shelters": [],
      "police": []
    },

    "Garissa": {
      "county_code": "007",
      "region": "North Eastern",
      "verified": false,
      "medical": [
        {
          "name": "Garissa County Referral Hospital",
          "phone": "TO BE VERIFIED",
          "location": "Garissa"
        }
      ],
      "legal": [
        {
          "name": "FIDA Kenya",
          "phone": "0800-720553",
          "cost": "FREE"
        }
      ],
      "counseling": [],
      "shelters": [],
      "police": []
    },

    "Wajir": {
      "county_code": "008",
      "region": "North Eastern",
      "verified": false,
      "medical": [],
      "legal": [
        {
          "name": "FIDA Kenya",
          "phone": "0800-720553",
          "cost": "FREE"
        }
      ],
      "counseling": [],
      "shelters": [],
      "police": []
    },

    "Mandera": {
      "county_code": "009",
      "region": "North Eastern",
      "verified": false,
      "medical": [],
      "legal": [
        {
          "name": "FIDA Kenya",
          "phone": "0800-720553",
          "cost": "FREE"
        }
      ],
      "counseling": [],
      "shelters": [],
      "police": []
    },

    "Marsabit": {
      "county_code": "010",
      "region": "Eastern",
      "verified": false,
      "medical": [],
      "legal": [
        {
          "name": "FIDA Kenya",
          "phone": "0800-720553",
          "cost": "FREE"
        }
      ],
      "counseling": [],
      "shelters": [],
      "police": []
    },

    "Isiolo": {
      "county_code": "011",
      "region": "Eastern",
      "verified": false,
      "medical": [],
      "legal": [
        {
          "name": "FIDA Kenya",
          "phone": "0800-720553",
          "cost": "FREE"
        }
      ],
      "counseling": [],
      "shelters": [],
      "police": []
    },

    "Meru": {
      "county_code": "012",
      "region": "Eastern",
      "verified": false,
      "medical": [
        {
          "name": "Meru Level 5 Hospital",
          "phone": "TO BE VERIFIED",
          "location": "Meru Town"
        }
      ],
      "legal": [
        {
          "name": "FIDA Kenya",
          "phone": "0800-720553",
          "cost": "FREE"
        }
      ],
      "counseling": [],
      "shelters": [],
      "police": []
    },

    "Tharaka Nithi": {
      "county_code": "013",
      "region": "Eastern",
      "verified": false,
      "medical": [],
      "legal": [
        {
          "name": "FIDA Kenya",
          "phone": "0800-720553",
          "cost": "FREE"
        }
      ],
      "counseling": [],
      "shelters": [],
      "police": []
    },

    "Embu": {
      "county_code": "014",
      "region": "Eastern",
      "verified": false,
      "medical": [
        {
          "name": "Embu Level 5 Hospital",
          "phone": "TO BE VERIFIED",
          "location": "Embu"
        }
      ],
      "legal": [
        {
          "name": "FIDA Kenya",
          "phone": "0800-720553",
          "cost": "FREE"
        }
      ],
      "counseling": [],
      "shelters": [],
      "police": []
    },

    "Kitui": {
      "county_code": "015",
      "region": "Eastern",
      "verified": false,
      "medical": [
        {
          "name": "Kitui County Referral Hospital",
          "phone": "TO BE VERIFIED",
          "location": "Kitui"
        }
      ],
      "legal": [
        {
          "name": "FIDA Kenya",
          "phone": "0800-720553",
          "cost": "FREE"
        }
      ],
      "counseling": [],
      "shelters": [],
      "police": []
    },

    "Machakos": {
      "county_code": "016",
      "region": "Eastern",
      "verified": true,
      "medical": [
        {
          "name": "Machakos Level 5 Hospital - GBV Unit",
          "type": "Public Hospital",
          "phone": "044-21193",
          "location": "Machakos",
          "services": ["Medical care", "PEP"],
          "hours": "24/7"
        }
      ],
      "legal": [
        {
          "name": "FIDA Kenya",
          "phone": "0800-720553",
          "cost": "FREE"
        }
      ],
      "counseling": [],
      "shelters": [],
      "police": []
    },

    "Makueni": {
      "county_code": "017",
      "region": "Eastern",
      "verified": false,
      "medical": [
        {
          "name": "Makueni County Referral Hospital",
          "phone": "TO BE VERIFIED",
          "location": "Wote"
        }
      ],
      "legal": [
        {
          "name": "FIDA Kenya",
          "phone": "0800-720553",
          "cost": "FREE"
        }
      ],
      "counseling": [],
      "shelters": [],
      "police": []
    },

    "Nyandarua": {
      "county_code": "018",
      "region": "Central",
      "verified": false,
      "medical": [],
      "legal": [
        {
          "name": "FIDA Kenya",
          "phone": "0800-720553",
          "cost": "FREE"
        }
      ],
      "counseling": [],
      "shelters": [],
      "police": []
    },

    "Nyeri": {
      "county_code": "019",
      "region": "Central",
      "verified": false,
      "medical": [
        {
          "name": "Nyeri County Referral Hospital",
          "phone": "TO BE VERIFIED",
          "location": "Nyeri"
        }
      ],
      "legal": [
        {
          "name": "FIDA Kenya",
          "phone": "0800-720553",
          "cost": "FREE"
        }
      ],
      "counseling": [],
      "shelters": [],
      "police": []
    },

    "Kirinyaga": {
      "county_code": "020",
      "region": "Central",
      "verified": false,
      "medical": [],
      "legal": [
        {
          "name": "FIDA Kenya",
          "phone": "0800-720553",
          "cost": "FREE"
        }
      ],
      "counseling": [],
      "shelters": [],
      "police": []
    },

    "Murang'a": {
      "county_code": "021",
      "region": "Central",
      "verified": false,
      "medical": [],
      "legal": [
        {
          "name": "FIDA Kenya",
          "phone": "0800-720553",
          "cost": "FREE"
        }
      ],
      "counseling": [],
      "shelters": [],
      "police": []
    },

    "Kiambu": {
      "county_code": "022",
      "region": "Central",
      "verified": true,
      "medical": [
        {
          "name": "Kiambu Level 5 Hospital - GBV Unit",
          "type": "Public Hospital",
          "phone": "066-2031301",
          "location": "Kiambu Town",
          "services": ["Medical care", "PEP", "Counseling"],
          "hours": "24/7"
        },
        {
          "name": "Thika Level 5 Hospital",
          "type": "Public Hospital",
          "phone": "067-22150",
          "location": "Thika",
          "services": ["GBV medical services"],
          "hours": "24/7"
        }
      ],
      "legal": [
        {
          "name": "FIDA Kenya",
          "phone": "0800-720553",
          "cost": "FREE"
        }
      ],
      "counseling": [],
      "shelters": [],
      "police": []
    },

    "Turkana": {
      "county_code": "023",
      "region": "Rift Valley",
      "verified": false,
      "medical": [],
      "legal": [
        {
          "name": "FIDA Kenya",
          "phone": "0800-720553",
          "cost": "FREE"
        }
      ],
      "counseling": [],
      "shelters": [],
      "police": []
    },

    "West Pokot": {
      "county_code": "024",
      "region": "Rift Valley",
      "verified": false,
      "medical": [],
      "legal": [
        {
          "name": "FIDA Kenya",
          "phone": "0800-720553",
          "cost": "FREE"
        }
      ],
      "counseling": [],
      "shelters": [],
      "police": []
    },

    "Samburu": {
      "county_code": "025",
      "region": "Rift Valley",
      "verified": false,
      "medical": [],
      "legal": [
        {
          "name": "FIDA Kenya",
          "phone": "0800-720553",
          "cost": "FREE"
        }
      ],
      "counseling": [],
      "shelters": [],
      "police": []
    },

    "Trans Nzoia": {
      "county_code": "026",
      "region": "Rift Valley",
      "verified": false,
      "medical": [],
      "legal": [
        {
          "name": "FIDA Kenya",
          "phone": "0800-720553",
          "cost": "FREE"
        }
      ],
      "counseling": [],
      "shelters": [],
      "police": []
    },

    "Uasin Gishu": {
      "county_code": "027",
      "region": "Rift Valley",
      "verified": true,
      "medical": [
        {
          "name": "Moi Teaching and Referral Hospital - GBV Centre",
          "type": "Public Hospital",
          "phone": "053-2033471 / 0703-906000",
          "location": "Eldoret",
          "services": ["Medical care", "PEP", "Counseling", "Forensics"],
          "hours": "24/7"
        }
      ],
      "legal": [
        {
          "name": "FIDA Kenya - Eldoret Office",
          "phone": "053-2063366 / 0800-720553",
          "services": ["Legal aid"],
          "cost": "FREE"
        }
      ],
      "counseling": [],
      "shelters": [],
      "police": []
    },

    "Elgeyo Marakwet": {
      "county_code": "028",
      "region": "Rift Valley",
      "verified": false,
      "medical": [],
      "legal": [
        {
          "name": "FIDA Kenya",
          "phone": "0800-720553",
          "cost": "FREE"
        }
      ],
      "counseling": [],
      "shelters": [],
      "police": []
    },

    "Nandi": {
      "county_code": "029",
      "region": "Rift Valley",
      "verified": false,
      "medical": [],
      "legal": [
        {
          "name": "FIDA Kenya",
          "phone": "0800-720553",
          "cost": "FREE"
        }
      ],
      "counseling": [],
      "shelters": [],
      "police": []
    },

    "Baringo": {
      "county_code": "030",
      "region": "Rift Valley",
      "verified": false,
      "medical": [],
      "legal": [
        {
          "name": "FIDA Kenya",
          "phone": "0800-720553",
          "cost": "FREE"
        }
      ],
      "counseling": [],
      "shelters": [],
      "police": []
    },

    "Laikipia": {
      "county_code": "031",
      "region": "Rift Valley",
      "verified": false,
      "medical": [],
      "legal": [
        {
          "name": "FIDA Kenya",
          "phone": "0800-720553",
          "cost": "FREE"
        }
      ],
      "counseling": [],
      "shelters": [],
      "police": []
    },

    "Nakuru": {
      "county_code": "032",
      "region": "Rift Valley",
      "verified": true,
      "medical": [
        {
          "name": "Nakuru Level 5 Hospital - GBV Unit",
          "type": "Public Hospital",
          "phone": "051-2213268",
          "location": "Nakuru",
          "services": ["Medical examination", "PEP", "Counseling"],
          "hours": "24/7"
        }
      ],
      "legal": [
        {
          "name": "FIDA Kenya - Nakuru Office",
          "phone": "051-2211234 / 0800-720553",
          "services": ["Legal aid"],
          "cost": "FREE"
        }
      ],
      "counseling": [],
      "shelters": [],
      "police": []
    },

    "Narok": {
      "county_code": "033",
      "region": "Rift Valley",
      "verified": false,
      "medical": [],
      "legal": [
        {
          "name": "FIDA Kenya",
          "phone": "0800-720553",
          "cost": "FREE"
        }
      ],
      "counseling": [],
      "shelters": [],
      "police": []
    },

    "Kajiado": {
      "county_code": "034",
      "region": "Rift Valley",
      "verified": false,
      "medical": [],
      "legal": [
        {
          "name": "FIDA Kenya",
          "phone": "0800-720553",
          "cost": "FREE"
        }
      ],
      "counseling": [],
      "shelters": [],
      "police": []
    },

    "Kericho": {
      "county_code": "035",
      "region": "Rift Valley",
      "verified": false,
      "medical": [],
      "legal": [
        {
          "name": "FIDA Kenya",
          "phone": "0800-720553",
          "cost": "FREE"
        }
      ],
      "counseling": [],
      "shelters": [],
      "police": []
    },

    "Bomet": {
      "county_code": "036",
      "region": "Rift Valley",
      "verified": false,
      "medical": [],
      "legal": [
        {
          "name": "FIDA Kenya",
          "phone": "0800-720553",
          "cost": "FREE"
        }
      ],
      "counseling": [],
      "shelters": [],
      "police": []
    },

    "Kakamega": {
      "county_code": "037",
      "region": "Western",
      "verified": false,
      "medical": [
        {
          "name": "Kakamega County General Hospital",
          "phone": "TO BE VERIFIED",
          "location": "Kakamega"
        }
      ],
      "legal": [
        {
          "name": "FIDA Kenya",
          "phone": "0800-720553",
          "cost": "FREE"
        }
      ],
      "counseling": [],
      "shelters": [],
      "police": []
    },

    "Vihiga": {
      "county_code": "038",
      "region": "Western",
      "verified": false,
      "medical": [],
      "legal": [
        {
          "name": "FIDA Kenya",
          "phone": "0800-720553",
          "cost": "FREE"
        }
      ],
      "counseling": [],
      "shelters": [],
      "police": []
    },

    "Bungoma": {
      "county_code": "039",
      "region": "Western",
      "verified": false,
      "medical": [],
      "legal": [
        {
          "name": "FIDA Kenya",
          "phone": "0800-720553",
          "cost": "FREE"
        }
      ],
      "counseling": [],
      "shelters": [],
      "police": []
    },

    "Busia": {
      "county_code": "040",
      "region": "Western",
      "verified": false,
      "medical": [],
      "legal": [
        {
          "name": "FIDA Kenya",
          "phone": "0800-720553",
          "cost": "FREE"
        }
      ],
      "counseling": [],
      "shelters": [],
      "police": []
    },

    "Siaya": {
      "county_code": "041",
      "region": "Nyanza",
      "verified": false,
      "medical": [],
      "legal": [
        {
          "name": "FIDA Kenya",
          "phone": "0800-720553",
          "cost": "FREE"
        }
      ],
      "counseling": [],
      "shelters": [],
      "police": []
    },

    "Kisumu": {
      "county_code": "042",
      "region": "Nyanza",
      "verified": true,
      "medical": [
        {
          "name": "Jaramogi Oginga Odinga Teaching and Referral Hospital - GBV Unit",
          "type": "Public Hospital",
          "phone": "057-2023395 / 0790-663000",
          "location": "Kisumu",
          "services": ["Medical care", "PEP", "Counseling"],
          "hours": "24/7"
        }
      ],
      "legal": [
        {
          "name": "FIDA Kenya - Kisumu Office",
          "phone": "057-2022844 / 0800-720553",
          "services": ["Legal aid", "Court representation"],
          "cost": "FREE"
        }
      ],
      "counseling": [],
      "shelters": [],
      "police": []
    },

    "Homa Bay": {
      "county_code": "043",
      "region": "Nyanza",
      "verified": false,
      "medical": [],
      "legal": [
        {
          "name": "FIDA Kenya",
          "phone": "0800-720553",
          "cost": "FREE"
        }
      ],
      "counseling": [],
      "shelters": [],
      "police": []
    },

    "Migori": {
      "county_code": "044",
      "region": "Nyanza",
      "verified": false,
      "medical": [],
      "legal": [
        {
          "name": "FIDA Kenya",
          "phone": "0800-720553",
          "cost": "FREE"
        }
      ],
      "counseling": [],
      "shelters": [],
      "police": []
    },

    "Kisii": {
      "county_code": "045",
      "region": "Nyanza",
      "verified": false,
      "medical": [
        {
          "name": "Kisii Teaching and Referral Hospital",
          "phone": "TO BE VERIFIED",
          "location": "Kisii"
        }
      ],
      "legal": [
        {
          "name": "FIDA Kenya",
          "phone": "0800-720553",
          "cost": "FREE"
        }
      ],
      "counseling": [],
      "shelters": [],
      "police": []
    },

    "Nyamira": {
      "county_code": "046",
      "region": "Nyanza",
      "verified": false,
      "medical": [],
      "legal": [
        {
          "name": "FIDA Kenya",
          "phone": "0800-720553",
          "cost": "FREE"
        }
      ],
      "counseling": [],
      "shelters": [],
      "police": []
    },

    "Nairobi": {
      "county_code": "047",
      "region": "Nairobi",
      "verified": true,
      "medical": [
        {
          "name": "Kenyatta National Hospital - Gender-Based Violence Recovery Centre",
          "type": "Hospital GBV Unit",
          "phone": "020-2726300 / 0709-854000",
          "location": "Hospital Road, Nairobi",
          "services": ["Medical examination", "Post-Exposure Prophylaxis (PEP)", "Emergency contraception", "Forensic evidence collection", "STI screening", "Counseling", "Police liaison"],
          "hours": "24/7",
          "cost": "Subsidized/Free for GBV survivors"
        },
        {
          "name": "Nairobi Women's Hospital - Gender Violence Recovery Centre",
          "type": "Private Hospital GBV Unit",
          "phone": "0722-845841 / 020-2845000",
          "location": "Argwings Kodhek Road, Hurlingham",
          "services": ["Medical care", "Counseling", "Legal support", "Safe house", "24/7 hotline"],
          "hours": "24/7",
          "cost": "Free for survivors (donor funded)"
        },
        {
          "name": "Mama Lucy Kibaki Hospital - GBV Centre",
          "type": "Public Hospital",
          "phone": "020-2340871",
          "location": "Outer Ring Road, Embakasi",
          "services": ["Medical examination", "PEP", "Counseling", "Referrals"],
          "hours": "24/7"
        }
      ],
      "legal": [
        {
          "name": "FIDA Kenya - Nairobi Office",
          "type": "Legal Aid Organization",
          "phone": "020-3874998 / 0800-720553 (Toll-free)",
          "email": "fida@fidakenya.org",
          "location": "Argwings Kodhek Road, Kilimani",
          "services": ["Free legal advice", "Court representation", "Protection orders", "Legal aid"],
          "hours": "Mon-Fri 8:00-17:00",
          "cost": "FREE"
        },
        {
          "name": "Kituo Cha Sheria",
          "type": "Legal Aid Centre",
          "phone": "020-3876290 / 0730-123222",
          "location": "Valley Road, Nairobi",
          "services": ["Legal aid", "Advocacy", "Court accompaniment"],
          "hours": "Mon-Fri 8:00-17:00",
          "cost": "FREE"
        }
      ],
      "counseling": [
        {
          "name": "LVCT Health - Counseling Services",
          "type": "Counseling Organization",
          "phone": "1190 (Toll-free)",
          "location": "Ralph Bunche Road, Nairobi",
          "services": ["Free counseling", "HIV testing", "GBV support groups"],
          "hours": "Mon-Fri 8:00-17:00"
        },
        {
          "name": "Amani Counselling Centre",
          "type": "Trauma Counseling",
          "phone": "020-2730300 / 0722-203132",
          "location": "Nairobi",
          "services": ["Individual therapy", "Group therapy", "Trauma counseling"],
          "hours": "Mon-Fri 8:00-17:00"
        },
        {
          "name": "Befrienders Kenya",
          "type": "Emotional Support",
          "phone": "0722-178177",
          "services": ["Emotional support", "Suicide prevention", "Crisis counseling"],
          "hours": "24/7"
        }
      ],
      "shelters": [
        {
          "name": "Nairobi Women's Hospital Safe House",
          "type": "Emergency Shelter",
          "phone": "0722-845841",
          "services": ["Safe temporary housing", "Counseling", "Medical care", "Legal support"],
          "duration": "Up to 3 months"
        },
        {
          "name": "COVAW - Shelter",
          "type": "Women's Shelter",
          "phone": "0736-002606 / 0722-384096",
          "services": ["Safe housing", "Psychosocial support", "Economic empowerment"]
        }
      ],
      "police": [
        {
          "name": "Central Police Station - Gender Desk",
          "phone": "020-222222 / 999",
          "location": "University Way, Nairobi",
          "services": ["GBV reporting", "Protection orders", "Case follow-up"]
        },
        {
          "name": "Kilimani Police Station - Gender Desk",
          "phone": "020-2723585",
          "location": "Kilimani, Nairobi"
        }
      ]
    }
  }
}